City,Country,Latitude,Longitude,Humidity,Wind Speed,Cloudiness,Temperature,Date
Pinega,RU,64.7001,43.3936,44,8.57,100,71.65,1655303927
Saldanha,ZA,-33.0117,17.9442,54,3.94,3,62.65,1655303927
Jamestown,US,42.097,-79.2353,83,5.99,36,80.19,1655303665
Garoowe,SO,8.4054,48.4845,26,20.87,14,91.09,1655303929
Juneau,US,58.3019,-134.4197,93,0.0,75,47.21,1655303716
Hay River,CA,60.8156,-115.7999,59,5.75,75,60.78,1655303931
Cockburn Town,TC,21.4612,-71.1419,76,15.97,2,81.28,1655303931
Ushuaia,AR,-54.8,-68.3,75,5.75,75,40.66,1655303932
Guerrero Negro,MX,27.9769,-114.0611,74,8.88,0,65.39,1655303933
Puerto Escondido,MX,15.85,-97.0667,69,8.05,100,77.83,1655303934
Grand Gaube,MU,-20.0064,57.6608,72,4.0,10,71.38,1655303935
Cidreira,BR,-30.1811,-50.2056,68,1.54,12,63.95,1655303935
Danville,US,36.586,-79.395,69,0.0,100,84.87,1655303839
Batemans Bay,AU,-35.7167,150.1833,65,5.3,48,51.1,1655303937
Harrisburg,US,40.2737,-76.8844,57,5.01,0,83.1,1655303900
Borogontsy,RU,62.6683,131.1683,94,4.05,100,52.75,1655303939
Yellowknife,CA,62.456,-114.3525,55,3.44,75,64.92,1655303641
Kudahuvadhoo,MV,2.6708,72.8944,70,10.09,89,84.27,1655303941
Dunedin,NZ,-45.8742,170.5036,69,1.99,27,44.8,1655303941
Pachperwa,IN,27.5167,82.65,19,6.6,5,101.91,1655303942
Port Hardy,CA,50.6996,-127.4199,87,2.3,75,50.18,1655303943
Kruisfontein,ZA,-34.0033,24.7314,65,18.25,61,47.88,1655303944
Tambaú,BR,-21.705,-47.2744,34,3.42,73,65.07,1655303945
Atuona,PF,-9.8,-139.0333,68,20.71,86,78.01,1655303946
Pevek,RU,69.7008,170.3133,80,5.41,4,29.95,1655303947
Mehamn,NO,71.0357,27.8492,92,11.81,100,44.51,1655303947
Coyhaique,CL,-45.5752,-72.0662,87,6.91,40,39.15,1655303822
Arraial do Cabo,BR,-22.9661,-42.0278,46,4.61,20,73.26,1655303949
Punta Arenas,CL,-53.15,-70.9167,75,19.57,40,42.91,1655303812
Fukuechō,JP,32.6881,128.8419,89,12.28,100,71.51,1655303950
Puerto Madero,MX,14.7208,-92.4215,100,3.44,100,77.2,1655303951
Rikitea,PF,-23.1203,-134.9692,70,7.54,91,72.59,1655303952
Ukiah,US,39.1502,-123.2078,76,0.0,0,69.04,1655303953
Esperance,AU,-33.8667,121.9,59,10.22,1,56.19,1655303953
Ilulissat,GL,69.2167,-51.1,75,9.22,20,35.62,1655303954
Sisimiut,GL,66.9395,-53.6735,56,10.51,13,39.16,1655303955
Saint Paul Harbor,US,57.79,-152.4072,87,8.05,100,51.31,1655303956
Lata,PT,40.1629,-8.3327,44,9.4,89,79.07,1655303956
Sorong,ID,-0.8833,131.25,81,5.86,100,80.4,1655303957
Hilo,US,19.7297,-155.09,60,4.61,40,72.28,1655303914
Bredasdorp,ZA,-34.5322,20.0403,63,4.97,11,53.58,1655303753
Hermanus,ZA,-34.4187,19.2345,59,2.1,15,57.79,1655303959
Waingapu,ID,-9.6567,120.2641,86,9.42,15,77.67,1655303960
Qaqortoq,GL,60.7167,-46.0333,69,11.07,7,42.69,1655303961
George Town,MY,5.4112,100.3354,86,6.91,40,82.33,1655303149
Ariquemes,BR,-9.9133,-63.0408,53,2.06,33,85.33,1655303963
Ribeira Grande,PT,38.5167,-28.7,78,6.91,40,70.2,1655303963
Homer,US,59.6425,-151.5483,91,1.99,0,47.8,1655303964
Port Alfred,ZA,-33.5906,26.891,75,8.01,85,51.19,1655303965
Hope,US,33.6671,-93.5916,70,9.55,18,82.98,1655303966
Mahon,ES,39.8885,4.2658,35,9.22,0,88.36,1655303967
New Norfolk,AU,-42.7826,147.0587,89,1.81,100,45.91,1655303968
Barrow,US,71.2906,-156.7887,93,9.22,100,33.82,1655303968
Nālūt,LY,30.3333,10.85,12,11.83,0,93.76,1655303969
Marsh Harbour,BS,26.5412,-77.0636,71,3.94,100,81.14,1655303729
Cabo San Lucas,MX,22.8909,-109.9124,52,1.01,2,85.05,1655303819
Puerto Ayora,EC,-0.7393,-90.3518,92,5.99,93,75.16,1655303971
Clyde River,CA,70.4692,-68.5914,100,4.61,100,37.63,1655303972
Kapaa,US,22.0752,-159.319,97,9.22,100,75.18,1655303973
Ulaangom,MN,49.9811,92.0667,62,8.5,77,65.21,1655303974
Saquarema,BR,-22.92,-42.5103,57,7.49,41,73.44,1655303975
Tasiilaq,GL,65.6145,-37.6368,98,9.51,100,41.16,1655303976
Ostrovnoy,RU,68.0531,39.5131,60,15.01,100,55.83,1655303976
Cape Town,ZA,-33.9258,18.4232,61,5.75,40,60.12,1655303883
Saint-Philippe,RE,-21.3585,55.7679,86,14.67,37,72.99,1655303978
Provideniya,RU,64.3833,-173.3,94,6.29,89,36.34,1655303979
Chokurdakh,RU,70.6333,147.9167,36,8.21,100,60.04,1655303980
Natá,PA,8.3333,-80.5167,77,7.9,99,76.87,1655303980
Aras,ES,42.5617,-2.356,12,4.61,0,100.81,1655303981
Cherskiy,RU,68.75,161.3,47,6.58,0,51.03,1655303982
Naze,JP,28.3667,129.4833,97,6.73,100,74.32,1655303983
Kavieng,PG,-2.5744,150.7967,78,10.13,85,81.72,1655303984
Benghazi,LY,32.1167,20.0667,64,15.99,0,78.57,1655303984
Anjozorobe,MG,-18.4,47.8667,93,4.32,26,57.45,1655303985
Taiping,MY,4.85,100.7333,89,3.91,100,77.22,1655303986
Kahului,US,20.8947,-156.47,78,12.66,20,75.85,1655303987
São Lourenço do Sul,BR,-31.3653,-51.9783,60,1.74,0,62.4,1655303987
East London,ZA,-33.0153,27.9116,47,27.63,0,58.14,1655303988
Nuevo Progreso,MX,23.1667,-97.95,70,7.83,100,82.11,1655303989
Mahébourg,MU,-20.4081,57.7,94,13.8,75,71.26,1655303990
Mataura,NZ,-46.1927,168.8643,92,7.23,87,44.47,1655303991
Hobart,AU,-42.8794,147.3294,95,4.61,100,46.26,1655303991
Luqiao,CN,28.5808,121.3772,97,3.83,100,70.83,1655303992
Salalah,OM,17.0151,54.0924,77,8.1,44,83.21,1655303993
Mar del Plata,AR,-38.0023,-57.5575,70,4.61,87,55.94,1655303994
Aykhal,RU,66.0,111.5,69,4.79,40,59.27,1655303995
San Patricio,US,28.017,-97.5169,53,18.07,100,85.89,1655303996
Kieta,PG,-6.2167,155.6333,83,3.18,79,77.67,1655303996
Jutaí,BR,-5.1833,-68.9,59,0.56,75,84.24,1655303997
Tuatapere,NZ,-46.1333,167.6833,89,8.3,71,44.51,1655303998
Norman Wells,CA,65.282,-126.8329,93,8.05,100,46.44,1655303856
Mandalgovi,MN,45.7625,106.2708,45,13.22,100,70.43,1655303999
Boryslav,UA,49.2867,23.4324,56,5.99,94,63.3,1655304000
Palu,ID,-0.8917,119.8707,95,3.11,91,75.52,1655304001
Haines Junction,CA,60.7522,-137.5108,76,2.3,99,46.35,1655304002
Severo-Kuril'sk,RU,50.6789,156.125,89,7.27,98,47.07,1655304003
Arman',RU,59.7,150.1667,94,1.92,100,46.02,1655304004
Vaini,TO,-21.2,-175.2,88,5.75,75,71.76,1655304004
Turaif,SA,31.6725,38.6637,22,6.91,0,93.45,1655304006
Nadym,RU,65.5333,72.5167,56,16.28,100,58.86,1655304007
Channel-Port aux Basques,CA,47.5702,-59.1367,68,4.99,23,54.97,1655304008
Busselton,AU,-33.65,115.3333,83,10.47,49,60.78,1655304008
Falmouth,GB,50.1544,-5.0711,55,13.8,75,66.78,1655304009
Beloha,MG,-25.1667,45.05,60,5.48,70,73.6,1655304010
Chui,UY,-33.6971,-53.4616,60,4.59,56,61.47,1655304011
Zyryanka,RU,65.75,150.85,60,6.49,100,56.97,1655304012
Ulladulla,AU,-35.35,150.4667,57,6.91,32,54.27,1655304013
Longyearbyen,SJ,78.2186,15.6401,75,13.8,75,40.84,1655304014
San Jerónimo,PE,-11.9472,-75.2829,52,2.13,2,53.64,1655304014
Raja,SS,8.4596,25.678,48,11.97,73,87.53,1655304015
Dakar,SN,14.6937,-17.4441,62,2.3,0,86.88,1655303765
Bambous Virieux,MU,-20.3428,57.7575,94,13.8,75,71.22,1655304016
Tikhvin,RU,59.6451,33.5294,84,5.57,95,57.22,1655304017
Bluff,NZ,-46.6,168.3333,82,26.11,100,44.8,1655304018
Thompson,CA,55.7435,-97.8558,100,9.22,100,60.96,1655304019
Constitución,CL,-35.3333,-72.4167,76,2.82,3,54.99,1655303747
Amurzet,RU,47.6967,131.0981,84,3.58,32,56.75,1655304021
Port Moresby,PG,-9.4431,147.1797,94,2.3,20,76.42,1655304022
Clayton,US,33.5335,-84.3666,68,9.22,20,90.54,1655303733
Klaksvík,FO,62.2266,-6.589,96,12.1,100,52.72,1655304023
Muisne,EC,0.6,-80.0333,83,11.25,100,76.95,1655304024
Río Gallegos,AR,-51.6226,-69.2181,80,3.44,75,33.85,1655304025
Kiryat Gat,IL,31.61,34.7642,1,14.14,0,85.41,1655304025
Meadow Lake,US,34.8014,-106.5436,23,4.12,0,79.68,1655304026
Bethel,US,41.3712,-73.414,61,5.75,0,78.6,1655303872
Port Augusta,AU,-32.5,137.7667,88,4.0,1,52.43,1655303934
Srednekolymsk,RU,67.45,153.6833,43,9.51,28,56.1,1655304028
São João da Barra,BR,-21.6403,-41.0511,53,3.67,81,75.29,1655304029
Butaritari,KI,3.0707,172.7902,74,11.92,100,82.17,1655304030
Aklavik,CA,68.2191,-135.0107,52,6.6,28,50.56,1655304031
Funtua,NG,11.5233,7.3081,27,7.31,91,93.99,1655304032
Iqaluit,CA,63.7506,-68.5145,81,5.75,75,42.53,1655304033
Khatanga,RU,71.9667,102.5,36,11.97,37,61.21,1655304034
Tongliao,CN,43.6125,122.2653,80,11.05,96,64.06,1655304035
Yulara,AU,-25.2406,130.9889,48,7.38,75,59.83,1655304036
Touros,BR,-5.1989,-35.4608,52,15.32,3,84.47,1655304036
Cap Malheureux,MU,-19.9842,57.6142,72,3.0,8,71.47,1655304037
Karaj,IR,35.8355,51.0103,8,13.8,0,91.92,1655304038
Kushikino,JP,31.7167,130.2667,91,4.27,100,72.09,1655304039
Bemidji,US,47.4736,-94.8803,71,9.22,0,70.92,1655303947
Kaitangata,NZ,-46.2817,169.8464,85,11.7,51,44.38,1655304041
Tofield,CA,53.3668,-112.6686,95,25.84,100,54.37,1655304041
Faanui,PF,-16.4833,-151.75,76,20.24,24,79.93,1655304042
Meridian,US,43.6121,-116.3915,67,10.36,0,53.33,1655303750
Namtsy,RU,62.7161,129.6658,83,6.35,97,54.63,1655304043
São Filipe,CV,14.8961,-24.4956,82,9.13,34,73.9,1655304044
Qaanaaq,GL,77.484,-69.3632,60,1.63,22,30.13,1655304045
Mizque,BO,-17.941,-65.3402,25,3.65,0,71.22,1655304047
Evensk,RU,61.95,159.2333,88,6.93,100,41.56,1655304048
Mikhaylov,RU,54.2292,39.0186,71,10.47,100,64.02,1655304049
Hobyo,SO,5.3505,48.5268,79,27.29,98,80.17,1655304050
Wanning,CN,18.8003,110.3967,92,7.45,100,80.44,1655304051
Narsaq,GL,60.9167,-46.05,58,9.93,7,53.82,1655304052
Loralai,PK,30.3705,68.598,19,16.53,0,88.84,1655304053
Port Hawkesbury,CA,45.6169,-61.3485,70,11.01,0,63.81,1655304054
Avarua,CK,-21.2078,-159.775,83,5.75,70,75.25,1655304055
Broome,US,42.2506,-75.833,60,4.61,0,77.36,1655304056
Albany,US,42.6001,-73.9662,59,1.01,59,77.63,1655304056
Marivan,IR,35.5219,46.176,19,11.88,0,80.67,1655304057
Upernavik,GL,72.7868,-56.1549,69,8.46,76,30.15,1655304058
Ketchikan,US,55.3422,-131.6461,93,5.75,0,50.47,1655304059
Ambilobe,MG,-13.2,49.05,67,3.31,69,77.86,1655304060
Port Elizabeth,ZA,-33.918,25.5701,78,18.41,40,52.32,1655304060
Springdale,US,36.1867,-94.1288,74,16.11,0,82.53,1655304062
Huarmey,PE,-10.0681,-78.1522,70,8.03,40,65.3,1655304062
Libertador General San Martín,AR,-23.8064,-64.7876,29,3.49,0,71.15,1655304063
Termoli,IT,41.9888,14.9895,50,9.06,3,89.78,1655304064
Port-Gentil,GA,-0.7193,8.7815,69,16.11,20,82.36,1655304065
Mariental,NA,-24.6333,17.9667,25,7.02,0,60.46,1655304066
Vila Velha,BR,-20.3297,-40.2925,60,6.91,0,76.95,1655304067
Kargil,IN,34.5667,76.1,55,3.78,96,52.81,1655304068
Umba,RU,66.6871,34.3429,76,9.1,100,58.5,1655304070
Kimberley,ZA,-28.7323,24.7623,57,11.5,75,47.89,1655304071
Payo,ID,-3.7508,103.6372,97,2.48,100,73.45,1655304072
Castro,BR,-24.7911,-50.0119,74,1.34,100,56.98,1655303827
Edgewood,US,39.4187,-76.2944,67,3.44,0,85.33,1655304013
Leningradskiy,RU,69.3833,178.4167,87,14.03,100,33.67,1655304074
Dikson,RU,73.5069,80.5464,76,7.09,34,38.44,1655304075
Airai,TL,-8.9266,125.4092,78,3.29,44,57.29,1655304076
Talnakh,RU,69.4865,88.3972,47,10.65,89,70.21,1655304077
Bathsheba,BB,13.2167,-59.5167,74,23.02,40,86.61,1655304078
Barra Patuca,HN,15.8,-84.2833,80,10.58,91,81.43,1655304080
Wajid,SO,3.8093,43.2471,33,15.23,7,88.05,1655304080
Tuktoyaktuk,CA,69.4541,-133.0374,80,9.22,0,35.6,1655304081
Okhotsk,RU,59.3833,143.3,95,4.61,97,41.7,1655304082
Dārāb,IR,28.7519,54.5444,12,12.06,78,98.15,1655304083
Meulaboh,ID,4.1363,96.1285,89,6.08,100,75.4,1655304083
Alice Springs,AU,-23.7,133.8833,66,0.0,3,49.55,1655304084
Upata,VE,8.0086,-62.3989,70,4.5,42,77.2,1655304085
Senigallia,IT,43.7093,13.2167,54,8.05,20,86.09,1655304086
Tazovsky,RU,67.4667,78.7,86,7.96,100,56.1,1655304087
Geraldton,AU,-28.7667,114.6,88,6.91,89,57.61,1655304087
Pangnirtung,CA,66.1451,-65.7125,87,0.0,100,41.0,1655304089
Srīvardhan,IN,18.0333,73.0167,76,8.79,21,83.64,1655304089
Adrar,MR,20.5022,-10.0711,13,11.79,11,107.76,1655304090
Charters Towers,AU,-20.1,146.2667,95,6.76,0,61.18,1655304091
Yantal',RU,56.8471,105.2542,68,3.51,3,62.53,1655304092
Krasnoborsk,RU,61.5598,45.934,89,7.74,100,67.57,1655304093
Hasaki,JP,35.7333,140.8333,91,5.68,100,64.8,1655304093
Nikolskoye,RU,59.7035,30.7861,96,13.4,100,59.79,1655304095
Marzuq,YE,14.4,46.4667,18,6.67,82,89.47,1655304097
Cocobeach,GA,1.0002,9.5823,79,12.73,44,77.86,1655304097
Changying,CN,52.8733,123.3213,96,3.0,64,52.45,1655304099
Port Hedland,AU,-20.3167,118.5667,72,6.91,46,66.25,1655304100
Los Llanos de Aridane,ES,28.6585,-17.9182,76,12.66,40,73.15,1655304100
Miles City,US,46.4083,-105.8406,50,20.71,75,56.37,1655303975
Santa Cruz de la Sierra,BO,-17.8,-63.1667,49,18.41,0,72.86,1655304055
Upington,ZA,-28.4478,21.2561,41,4.61,40,55.78,1655304102
Tiksi,RU,71.6872,128.8694,79,13.89,100,36.43,1655304103
Bilma,NE,18.6853,12.9164,16,5.73,85,104.88,1655304104
Colesberg,ZA,-30.72,25.0972,42,17.11,70,43.7,1655304105
Alihe,CN,50.5667,123.7167,95,3.47,14,52.77,1655304106
Labuan,MY,5.2767,115.2417,94,0.0,40,79.16,1655304106
Lebu,CL,-37.6167,-73.65,86,4.38,37,51.6,1655304107
Port-Cartier,CA,50.0334,-66.8654,50,6.29,3,75.42,1655303954
Hong Kong,HK,22.2855,114.1577,94,8.01,100,77.95,1655303985
Guna,IN,24.65,77.3167,34,10.18,99,96.06,1655304110
Luanda,AO,-8.8368,13.2343,73,12.66,20,77.0,1655304110
Vila Franca do Campo,PT,37.7167,-25.4333,80,8.37,74,71.2,1655304111
Voyvozh,RU,62.892,54.9635,41,5.46,80,68.9,1655304112
Georgiyevka,KZ,43.0369,74.7114,47,13.42,75,77.04,1655304113
Vostok,RU,46.4856,135.8833,87,3.18,100,52.03,1655304114
Hithadhoo,MV,-0.6,73.0833,69,5.55,46,83.19,1655304115
Alofi,NU,-19.0595,-169.9187,100,5.75,81,73.29,1655304116
Aksu,CN,41.1231,80.2644,12,2.93,35,88.81,1655304117
Isangel,VU,-19.55,169.2667,85,12.93,74,75.83,1655304118
Rome,US,43.2128,-75.4557,61,3.2,51,79.72,1655303969
Wajir,KE,1.7471,40.0573,38,10.36,12,91.36,1655304119
Cariré,BR,-3.9506,-40.4733,51,3.09,14,85.64,1655304121
Grindavik,IS,63.8424,-22.4338,66,19.57,75,53.55,1655304121
Padang,ID,-0.9492,100.3543,86,4.09,100,73.45,1655304122
Antalaha,MG,-14.9003,50.2788,86,7.36,64,73.13,1655304123
Khorramshahr,IR,30.4397,48.1664,9,13.8,0,114.75,1655304124
Mount Gambier,AU,-37.8333,140.7667,94,14.97,100,53.51,1655304125
Abu Samrah,SY,35.3029,37.1841,30,13.87,1,88.05,1655304126
Saskylakh,RU,71.9167,114.0833,45,8.9,1,48.78,1655304127
Pitimbu,BR,-7.4706,-34.8086,71,9.15,28,82.99,1655304128
Carnarvon,AU,-24.8667,113.6333,94,1.79,100,68.67,1655304128
Torbay,CA,47.6666,-52.7314,56,13.8,75,54.37,1655304129
Ancud,CL,-41.8697,-73.8203,89,4.16,25,49.23,1655304130
Outjo,NA,-20.1167,16.15,13,8.95,0,75.52,1655304131
Krasnogvardeyskoye,RU,45.8456,41.5186,57,6.64,68,79.39,1655304132
North Bend,US,43.4065,-124.2243,87,3.44,75,52.86,1655304132
Alexandria,EG,31.2156,29.9553,57,12.66,0,82.94,1655304069
Lompoc,US,34.6391,-120.4579,86,15.01,0,69.93,1655304134
Nishihara,JP,26.1842,127.7558,100,9.22,100,75.25,1655304135
Japura,ID,-0.3167,102.35,95,0.98,87,74.34,1655304135
Villa de Reyes,MX,21.8,-100.9333,79,11.52,100,63.16,1655304136
Idenao,CM,4.2475,9.0047,81,2.55,69,81.34,1655304137
Port Lincoln,AU,-34.7333,135.8667,82,8.48,17,56.35,1655304138
Tacuarembó,UY,-31.7333,-55.9833,65,5.37,16,62.4,1655303847
Cayenne,GF,4.9333,-52.3333,33,11.5,75,87.84,1655304139
Bellmead,US,31.594,-97.1089,72,14.97,40,84.74,1655304140
Camacha,PT,33.0833,-16.3333,64,20.71,40,69.22,1655304141
Miracatu,BR,-24.2814,-47.4597,58,1.72,58,72.59,1655304141
Cascais,PT,38.6979,-9.4215,64,5.75,20,84.02,1655304144
Dingli,MT,35.8614,14.3822,39,5.75,0,84.36,1655304144
Lázaro Cárdenas,MX,17.9583,-102.2,74,4.34,100,81.57,1655303992
Wuda,CN,39.4994,106.7117,12,6.51,0,84.99,1655304146
Bandarbeyla,SO,9.4942,50.8122,77,30.8,48,78.3,1655304147
Savannah Bight,HN,16.45,-85.85,79,14.61,88,80.49,1655304147
Mugango,TZ,-1.6833,33.7,67,8.21,42,74.35,1655304148
Karasjok,NO,69.4719,25.5112,58,12.5,98,50.38,1655304149
Albania,AL,41.0,20.0,43,10.13,26,85.17,1655304150
Hofn,IS,64.2539,-15.2082,76,3.44,100,53.62,1655304150
Sémbé,CG,1.6481,14.5806,79,1.3,100,79.18,1655304151
Bubaque,GW,11.2833,-15.8333,80,11.92,85,80.82,1655304152
Vestmannaeyjar,IS,63.4427,-20.2734,71,12.66,75,54.59,1655304153
Santa Maria,BR,-29.6842,-53.8069,67,2.3,0,61.9,1655304155
Rosamorada,MX,22.1222,-105.2058,59,2.62,31,84.81,1655304155
Hazorasp,UZ,41.3194,61.0742,15,14.2,0,94.84,1655304156
Tarauacá,BR,-8.1614,-70.7656,58,1.07,46,80.6,1655304157
Tura,IN,25.5198,90.2201,98,4.74,100,72.66,1655304158
Nouadhibou,MR,20.931,-17.0347,65,18.41,8,76.98,1655304158
Cham,CH,47.1821,8.4636,41,3.44,0,91.98,1655304159
Sungai Penuh,ID,-2.0833,101.3833,97,1.83,93,63.48,1655304160
Khovd,MN,48.0056,91.6419,27,1.3,20,74.89,1655304161
Lokosovo,RU,61.1333,74.8167,89,12.24,100,55.67,1655304162
Oranjestad,AW,12.524,-70.027,74,24.16,20,84.15,1655304162
Bengkulu,ID,-3.8004,102.2655,89,4.05,100,76.24,1655304163
Chiang Khong,TH,20.2613,100.4046,99,0.4,100,72.5,1655304164
Novaya Igirma,RU,57.1334,103.9112,61,3.87,54,66.51,1655304165
Kununurra,AU,-15.7667,128.7333,77,0.0,11,57.18,1655304166
Rawson,AR,-43.3002,-65.1023,61,2.28,8,48.65,1655304167
Ponta Delgada,PT,37.7333,-25.6667,88,16.11,75,71.51,1655304168
Châteaudun,FR,48.0833,1.3333,38,6.04,5,94.95,1655304169
Kyabé,TD,9.4515,18.9449,34,2.08,100,93.76,1655304170
Erenhot,CN,43.6475,111.9767,25,5.55,36,75.43,1655304171
Port Macquarie,AU,-31.4333,152.9167,75,5.3,0,49.89,1655304171
Hot Springs,US,34.5037,-93.0552,75,9.22,20,82.62,1655303970
Lüderitz,NA,-26.6481,15.1594,36,14.36,20,68.99,1655304173
Ponta do Sol,PT,32.6667,-17.1,65,13.96,22,75.13,1655304173
Khāsh,IR,28.2211,61.2158,10,4.25,96,97.29,1655304174
Nagato,JP,34.3833,131.2,90,7.4,100,67.64,1655304175
Saint Anthony,US,45.0205,-93.218,63,11.5,75,71.55,1655304176
Boa Vista,BR,2.8197,-60.6733,83,3.44,75,78.78,1655303945
Merauke,ID,-8.4667,140.3333,89,12.48,98,78.1,1655304177
Fortuna,US,40.5982,-124.1573,92,1.01,100,54.93,1655304178
Egvekinot,RU,66.3167,-179.1667,91,3.96,99,29.44,1655304179
Mandera,KE,3.9366,41.867,31,15.48,2,92.07,1655304180
Fort Nelson,CA,58.8053,-122.7002,66,2.3,40,53.19,1655304181
Jalu,LY,29.0331,21.5482,21,6.85,0,93.83,1655304181
Tilichiki,RU,60.4667,166.1,87,4.94,22,43.05,1655304182
Biu,NG,10.6129,12.1946,58,5.1,74,79.63,1655304183
Hualmay,PE,-11.0964,-77.6139,70,7.9,48,64.08,1655304184
Gewanē,ET,10.1664,40.6453,9,15.84,6,103.57,1655304185
Krasnosel'kup,RU,65.7,82.4667,59,5.1,98,70.27,1655304186
Saint George,US,37.1041,-113.5841,19,1.99,0,73.44,1655303980
Frontera,MX,26.9333,-101.45,50,4.61,40,82.33,1655304187
Troitskoye,RU,52.9821,84.6757,72,3.06,67,63.88,1655304188
Ozernovskiy,RU,51.5,156.5167,80,1.61,37,46.63,1655304189
Luganville,VU,-15.5333,167.1667,87,7.27,34,77.31,1655304190
Arroyo de la Encomienda,ES,41.6096,-4.7969,21,5.75,40,99.14,1655304191
Puerto Madryn,AR,-42.7692,-65.0385,65,1.16,52,49.53,1655304183
Itarema,BR,-2.9248,-39.9167,56,12.95,10,84.24,1655304192
Wanaka,NZ,-44.7,169.15,91,5.53,79,39.02,1655304193
Kirovskiy,RU,45.0917,133.5136,91,4.16,100,55.17,1655304194
West Bay,KY,19.3667,-81.4167,66,10.36,20,87.87,1655304195
Souillac,MU,-20.5167,57.5167,94,13.8,75,70.18,1655304197
Uvinza,TZ,-5.1036,30.3911,54,5.99,88,79.0,1655304197
Saint-Pierre,RE,-21.3393,55.4781,73,3.44,20,73.9,1655304198
Shiringushi,RU,53.8485,42.7676,66,7.02,78,66.13,1655304199
Pecos,US,31.4229,-103.4932,39,10.36,0,83.3,1655304173
Foz,ES,43.5692,-7.2544,61,5.82,63,78.98,1655304200
Oyama,JP,36.3,139.8,83,1.25,100,68.59,1655304202
Berlevåg,NO,70.8578,29.0864,87,6.91,75,44.55,1655304204
Sioux Lookout,CA,50.1001,-91.917,77,6.91,75,66.27,1655304204
Auki,SB,-8.7676,160.7034,86,3.76,100,78.1,1655304206
Kilrush,IE,52.6397,-9.4833,65,11.59,66,65.95,1655304207
Dingle,PH,10.9995,122.6711,83,2.91,18,79.56,1655304208
Wattegama,LK,6.7989,81.4808,88,4.27,100,76.91,1655304208
Jackson,US,42.4165,-122.8345,74,0.0,0,55.04,1655304111
Vardø,NO,70.3705,31.1107,87,12.66,75,44.58,1655304210
Scarborough,GB,54.2797,-0.4044,73,4.0,100,67.78,1655304121
Maragogi,BR,-9.0122,-35.2225,74,7.18,20,79.99,1655304212
Boyuibe,BO,-20.4167,-63.2833,26,4.47,0,71.19,1655304212
Yar-Sale,RU,66.8333,70.8333,44,5.53,85,64.35,1655304213
Vengerovo,RU,55.6848,76.7471,92,7.29,98,55.58,1655304214
Harboøre,DK,56.6175,8.1807,82,13.38,100,64.18,1655304215
Coffs Harbour,AU,-30.3,153.1333,93,5.75,0,53.13,1655304118
Tual,ID,-5.6667,132.75,87,3.89,100,77.83,1655304217
Dvinskoy,RU,62.1535,45.1175,88,9.13,100,67.62,1655304217
Te Anau,NZ,-45.4167,167.7167,93,6.13,100,44.44,1655304218
Russell,US,32.3502,-85.1999,69,5.75,0,83.8,1655304219
Maracaçumé,BR,-2.0428,-45.9592,45,6.87,89,89.06,1655304220
Bereda,ES,43.2686,-7.5406,30,6.17,77,91.38,1655304221
Itaberá,BR,-23.8619,-49.1372,60,6.04,90,65.77,1655304222
Forbes,AU,-33.3833,148.0167,77,8.25,11,43.52,1655304222
Levice,SK,48.2156,18.6071,44,4.21,50,81.5,1655304223
Fethiye,TR,36.6217,29.1164,58,3.33,31,80.47,1655304224
Westport,US,41.1415,-73.3579,65,10.36,0,79.86,1655304022
Eureka,US,40.8021,-124.1637,87,0.49,53,53.92,1655304017
Flinders,AU,-34.5833,150.8552,57,4.0,7,57.38,1655304106
Jagüey Grande,CU,22.5269,-81.1286,61,8.32,29,86.04,1655304226
Rio Grande,BR,-32.035,-52.0986,62,2.86,0,55.51,1655304227
Kaeo,NZ,-35.1,173.7833,94,4.12,22,49.32,1655304228
Portree,GB,57.4129,-6.1942,97,11.14,100,53.53,1655304229
Olinda,BR,-8.0089,-34.8553,74,8.05,40,82.13,1655304229
Waitara,NZ,-38.925,174.25,73,18.72,49,54.5,1655304230
Mnogovershinnyy,RU,53.9353,139.9242,96,3.29,99,43.99,1655304231
Timrå,SE,62.487,17.3257,39,14.97,0,65.88,1655304232
Bogashevo,RU,56.3683,85.1447,52,4.47,0,67.84,1655304232
Stornoway,GB,58.2093,-6.3865,97,20.71,75,54.93,1655304233
Delījān,IR,33.9905,50.6838,5,16.15,0,91.74,1655304234
Samaná,DO,19.2056,-69.3369,78,0.0,40,82.62,1655304235
Hirtshals,DK,57.5881,9.9592,82,18.77,100,56.79,1655304235
Dzilam González,MX,21.2833,-88.9333,55,6.8,9,88.25,1655304236
Kaspiysk,RU,42.8816,47.6392,44,11.18,93,80.78,1655304237
Kokino,RU,52.4964,34.7808,67,8.77,84,63.63,1655304238
Kumano,JP,34.3442,132.5894,96,2.21,100,67.12,1655304239
Olafsvik,IS,64.8945,-23.7142,69,13.35,94,49.73,1655304239
Jianning,CN,27.8333,113.15,81,3.8,100,82.53,1655304240
Jiuquan,CN,39.7432,98.5174,7,4.29,100,77.0,1655304241
Sarkand,KZ,45.41,79.9186,72,5.03,87,63.86,1655304079
Altay,CN,47.8667,88.1167,55,3.87,37,67.01,1655304242
Mindelo,CV,16.8901,-24.9804,54,26.46,75,80.15,1655304244
Villarrica,PY,-25.75,-56.4333,61,5.97,0,67.23,1655304245
Porto-Novo,BJ,6.4965,2.6036,91,6.71,100,76.96,1655304246
Inhambane,MZ,-23.865,35.3833,83,11.5,40,76.98,1655304247
Williston,US,48.147,-103.618,60,8.01,97,58.03,1655304078
Sibiti,CG,-3.6819,13.3499,40,4.23,29,85.01,1655304248
Kuito,AO,-12.3833,16.9333,13,4.99,66,77.92,1655304249
Ahipara,NZ,-35.1667,173.1667,72,8.23,90,57.45,1655304250
Eséka,CM,3.65,10.7667,93,3.96,51,78.33,1655304251
Salinas,US,36.6777,-121.6555,76,3.44,40,60.3,1655304124
Coquimbo,CL,-29.9533,-71.3436,66,6.91,20,51.53,1655304252
Wolfenbüttel,DE,52.1667,10.55,34,6.91,0,81.01,1655304253
Bernau bei Berlin,DE,52.6798,13.5871,39,1.48,49,80.71,1655304254
Billings Metropolitan Area,US,45.7833,-108.5007,40,27.63,75,61.29,1655304060
Faya,SA,18.3851,42.4509,22,6.58,60,88.32,1655304255
Yumen,CN,40.2833,97.2,6,8.75,97,80.85,1655304256
Hamilton,US,39.1834,-84.5333,69,5.75,0,90.25,1655303963
Requena,ES,39.4883,-1.1004,15,12.21,100,88.79,1655304257
Margate,GB,51.3813,1.3862,52,10.25,79,75.11,1655304258
Sovetskiy,RU,61.3614,63.5842,45,6.29,87,67.8,1655304259
Nanortalik,GL,60.1432,-45.2371,88,4.36,62,38.43,1655304260
Todos Santos,MX,23.45,-110.2167,69,7.2,0,91.04,1655304218
Livny,RU,52.4253,37.6069,71,7.81,99,63.59,1655304261
Daru,PG,-9.0763,143.2092,87,14.88,78,79.39,1655304262
Baijiantan,CN,45.6333,85.1833,41,30.11,68,80.28,1655304263
Urucará,BR,-2.5364,-57.76,87,3.94,36,80.26,1655304264
Changping,CN,40.2186,116.2197,67,3.53,100,73.04,1655304265
Raub,MY,3.7899,101.857,96,0.31,100,73.44,1655304266
Caravelas,BR,-17.7125,-39.2481,54,7.16,90,75.61,1655304267
Altar,MX,30.7,-111.8167,17,3.36,0,86.4,1655304267
Coolum Beach,AU,-26.5333,153.1,98,2.93,97,60.22,1655304268
Sitka,US,57.0531,-135.33,87,6.91,40,48.09,1655304269
Lagoa,PT,39.05,-27.9833,88,11.25,0,63.66,1655304270
Saurimo,AO,-9.6608,20.3916,22,0.0,75,88.12,1655304271
Abalak,RU,58.1286,68.5944,78,4.59,94,60.13,1655304272
Houma,US,29.5958,-90.7195,76,1.99,4,89.01,1655304022
Sabha,LY,27.0377,14.4283,13,8.14,0,95.23,1655304273
Mityana,UG,0.4175,32.0228,78,4.23,98,69.33,1655304274
Swan Hill,AU,-35.3378,143.5544,95,8.48,14,49.33,1655304275
Kholtoson,RU,50.2981,103.3097,96,2.48,100,56.41,1655304276
Miramar,US,25.9873,-80.2323,70,4.61,20,90.01,1655304276
Halifax,CA,44.6453,-63.5724,72,15.01,75,64.89,1655304099
Half Moon Bay,US,37.4636,-122.4286,76,8.05,40,67.59,1655304192
Uren',RU,57.4552,45.7852,92,6.71,100,66.45,1655304279
Bambanglipuro,ID,-7.95,110.2833,87,4.54,98,77.61,1655304279
Jizan,SA,17.3333,42.6667,50,6.6,54,95.94,1655304280
Antigonish,CA,45.6169,-61.9986,74,3.0,80,63.01,1655304202
Pacific Grove,US,36.6177,-121.9166,91,10.0,20,59.9,1655303991
Ban Nahin,LA,18.2418,104.2122,94,1.61,100,75.47,1655304282
Esim,GH,4.8699,-2.2405,92,9.64,100,76.06,1655304283
Sept-Îles,CA,50.2001,-66.3821,61,5.99,20,75.72,1655304284
Anakapalle,IN,17.6833,83.0167,74,6.87,83,85.95,1655304284
Peniche,PT,39.3558,-9.3811,75,10.13,66,75.11,1655304090
Shiraz,IR,29.6036,52.5388,9,9.22,0,96.24,1655304286
Quelimane,MZ,-17.8786,36.8883,54,8.05,40,84.15,1655304288
Hirara,JP,24.8,125.2833,82,16.17,100,81.73,1655304289
Porto Nacional,BR,-10.7081,-48.4172,33,9.28,5,84.2,1655304290
Champerico,GT,14.3,-91.9167,82,6.51,100,79.34,1655304291
Xining,CN,36.6167,101.7667,33,2.62,100,63.25,1655304291
Majene,ID,-3.5403,118.9707,89,5.55,100,78.64,1655304292
Uyovu,TZ,-3.2833,31.5258,44,2.82,39,80.4,1655304293
Nuuk,GL,64.1835,-51.7216,45,10.36,40,43.41,1655304093
Harper,LR,4.375,-7.7169,88,11.3,100,76.87,1655304294
Pyinmana,MM,19.7333,96.2167,94,6.53,94,75.88,1655304295
Noumea,NC,-22.2763,166.4572,99,11.1,82,75.0,1655304296
Codrington,AU,-38.2667,141.9667,91,17.56,95,55.35,1655304296
Alkmaar,NL,52.6317,4.7486,53,4.0,55,75.88,1655304128
Bāgeshwar,IN,29.85,79.7667,31,1.77,54,83.62,1655304298
Quatre Cocos,MU,-20.2078,57.7625,79,19.35,36,71.1,1655304299
Bowen,AU,-20.0167,148.2333,79,9.51,98,68.13,1655304299
Ordu,TR,40.9086,37.6845,71,4.94,5,61.3,1655304300
Sobolevo,RU,54.4299,31.8996,81,10.16,44,61.3,1655304301
Douglas,US,41.3,-96.167,93,16.11,100,70.75,1655304302
Broken Hill,AU,-31.95,141.4333,75,9.19,97,54.54,1655304302
Jinchang,CN,38.4953,102.1739,10,6.4,37,79.11,1655304303
Mt. Pleasant,US,32.7941,-79.8626,64,3.44,40,91.38,1655304304
Lerwick,GB,60.1545,-1.1494,91,14.32,100,53.6,1655304305
Loandjili,CG,-4.7561,11.8578,71,11.12,16,76.98,1655304306
Bocas del Toro,PA,9.3333,-82.25,81,3.83,100,77.56,1655304306
Nakusp,CA,50.2499,-117.8023,87,1.14,91,53.94,1655304308
La Ronge,CA,55.1001,-105.2842,94,10.36,100,53.85,1655304308
Tallahassee,US,30.4383,-84.2807,78,4.61,40,86.32,1655304051
Dahra,DZ,36.2546,0.8519,20,9.1,32,101.59,1655304310
Dudinka,RU,69.4058,86.1778,49,11.68,100,70.63,1655304311
Oranjemund,NA,-28.55,16.4333,53,12.91,11,61.83,1655304311
Hambantota,LK,6.1241,81.1185,94,3.44,40,80.94,1655304313
Palana,RU,59.1167,159.9667,80,2.04,100,40.23,1655304314
Bulungu,CD,-4.55,18.6,31,2.82,97,93.42,1655304315
Maniitsoq,GL,65.4167,-52.9,66,8.9,38,37.65,1655304316
Bismarck,US,46.8083,-100.7837,56,16.11,0,62.65,1655304308
Serednye Vodyane,UA,47.9816,23.9104,50,6.02,51,74.12,1655304317
Chicama,PE,-7.8447,-79.1469,65,6.73,18,61.34,1655304318
Kalevala,RU,65.2,31.1667,88,10.47,100,56.7,1655304319
Zhuhai,CN,22.2769,113.5678,88,4.61,40,77.86,1655304320
Paros,GR,37.0833,25.15,61,14.97,0,80.19,1655304321
Acapulco de Juárez,MX,16.8634,-99.8901,88,12.66,100,76.82,1655304321
Rocha,UY,-34.4833,-54.3333,66,4.7,100,61.38,1655304087
Northam,GB,51.0333,-4.2167,65,7.54,70,61.39,1655304323
Cherdyn',RU,60.403,56.4787,50,1.81,45,71.01,1655304324
Lagos,NG,6.5833,3.75,87,5.1,100,78.17,1655304119
Tortolì,IT,39.9256,9.6572,66,8.05,20,85.82,1655304325
Örnsköldsvik,SE,63.2909,18.7153,40,10.16,63,64.29,1655304326
Nogliki,RU,51.8333,143.1667,87,4.38,79,49.33,1655304327
Banepā,NP,27.6298,85.5214,94,2.3,75,71.92,1655304328
Rupert,US,42.6191,-113.6772,49,12.66,0,51.19,1655304329
Morant Bay,JM,17.8815,-76.4093,71,12.68,100,87.71,1655304330
Viedma,AR,-40.8135,-62.9967,62,7.4,3,55.33,1655304331
Al Bardīyah,LY,31.7561,25.0865,56,14.25,0,79.77,1655304331
Lufkin,US,31.3382,-94.7291,77,14.97,75,85.84,1655304333
Sangīn,AF,32.0728,64.8359,6,5.3,4,98.74,1655304334
Tiarei,PF,-17.5333,-149.3333,79,21.5,26,77.0,1655304334
Campo Verde,BR,-20.4167,-54.0667,42,9.62,0,78.67,1655304335
Manjakandriana,MG,-18.9167,47.8,96,3.62,29,64.09,1655304336
Salta,AR,-24.7859,-65.4117,49,4.0,0,62.58,1655304337
Yeppoon,AU,-23.1333,150.7333,85,5.64,100,62.38,1655304338
Taoudenni,ML,22.6783,-3.9836,5,7.2,0,111.47,1655304339
Raudeberg,NO,61.9875,5.1352,91,12.26,100,56.07,1655304341
Zarubino,RU,42.63,131.0922,97,1.92,100,53.06,1655304341
Chāndbāli,IN,20.7833,86.7667,75,16.8,100,85.75,1655304343
Reserva,BR,-24.6503,-50.8506,62,1.86,100,60.42,1655304343
Manatí,PR,18.4275,-66.4921,80,10.07,100,87.87,1655304344
Conceição do Araguaia,BR,-8.2578,-49.2647,43,9.91,7,88.32,1655304345
Dalbandin,PK,28.8947,64.4101,8,13.98,42,103.39,1655304271
Ballina,AU,-28.8667,153.5667,99,6.08,0,57.02,1655304346
Bilibino,RU,68.0546,166.4372,63,5.88,0,43.02,1655304347
San Quintín,MX,30.4833,-115.95,78,2.71,28,62.96,1655304348
Great Yarmouth,GB,52.6083,1.7305,70,9.57,92,74.41,1655304349
Petauke,ZM,-14.2426,31.3253,35,3.42,0,73.58,1655304349
Jining,CN,35.405,116.5814,39,8.21,7,80.67,1655304350
Edson,CA,53.5835,-116.4356,87,8.05,75,51.94,1655304213
Kyaikto,MM,17.3,97.0167,82,4.97,100,81.45,1655304351
Alta Floresta,BR,-9.8756,-56.0861,55,2.3,0,89.42,1655304352
Slave Lake,CA,55.2834,-114.769,72,16.11,100,57.18,1655304185
Laas,IT,46.6166,10.7002,49,5.01,82,79.68,1655304354
Avera,US,33.194,-82.5271,46,4.09,36,92.37,1655304354
São Raimundo Nonato,BR,-9.0153,-42.6994,36,8.75,53,88.88,1655304355
Valparaíso,CL,-33.0393,-71.6273,84,8.05,1,53.83,1655304350
Gisborne,NZ,-38.6533,178.0042,69,7.27,2,52.59,1655304356
Astoria,US,46.1879,-123.8313,91,4.61,0,52.86,1655304357
Kasongo-Lunda,CD,-6.4667,16.8167,21,2.35,34,93.81,1655304358
Sardulgarh,IN,29.7,75.25,25,12.59,42,100.09,1655304359
Ugoofaaru,MV,5.6667,73.0,75,15.9,100,83.5,1655304360
Entre Rios,BR,-11.9419,-38.0844,67,11.01,95,77.4,1655304360
Lahaina,US,20.8783,-156.6825,84,8.41,2,76.8,1655304361
Port Said,EG,31.2565,32.2841,69,9.22,0,80.58,1655304362
Staryy Nadym,RU,65.6118,72.6842,54,15.99,100,60.24,1655304363
Mitsamiouli,KM,-11.3847,43.2844,77,5.66,3,78.46,1655304364
Wanganui,NZ,-39.9333,175.05,72,21.99,80,56.59,1655304364
Sarangani,PH,5.4033,125.4636,77,18.45,74,83.5,1655304365
Dengzhou,CN,37.8086,120.7508,83,6.96,0,63.25,1655304366
Vozhega,RU,60.4725,40.2213,59,11.32,61,62.89,1655304367
San Juan,AR,-31.5375,-68.5364,26,6.69,0,53.83,1655304129
Māngrol,IN,21.1167,70.1167,75,13.6,10,85.46,1655304368
Bosaso,SO,11.2842,49.1816,70,9.22,0,93.18,1655304369
Atasū,KZ,48.6814,71.6433,46,10.8,3,64.89,1655304370
Trairi,BR,-3.2778,-39.2689,54,11.59,46,84.45,1655304345
Arrondissement de Saint-Denis,FR,48.9167,2.3333,35,9.22,0,91.24,1655304371
Ewo,CG,-0.8725,14.8206,50,2.53,100,87.64,1655304372
Batticaloa,LK,7.7102,81.6924,78,6.53,100,80.92,1655304345
Antofagasta,CL,-23.65,-70.4,70,6.42,68,58.28,1655304160
Tsumeb,NA,-19.2333,17.7167,14,3.24,0,74.46,1655304374
Oddur,SO,4.1213,43.8894,34,16.53,15,86.56,1655304375
Vryburg,ZA,-26.9566,24.7284,35,9.66,5,52.93,1655304376
Dhāmpur,IN,29.3167,78.5167,18,7.61,32,102.56,1655304377
Gobabis,NA,-22.45,18.9667,16,5.84,0,64.13,1655304378
La Salle,US,41.3334,-89.0918,60,14.97,0,87.26,1655304378
Alamosa,US,37.4695,-105.87,21,10.36,0,60.78,1655304379
Vanimo,PG,-2.6741,141.3028,87,6.22,95,78.93,1655304380
Stromness,GB,58.965,-3.296,86,8.01,100,55.87,1655304193
Vanavara,RU,60.34,102.2797,77,4.45,83,63.01,1655304381
Shīeli,KZ,44.1667,66.75,20,11.59,0,85.68,1655304382
Methóni,GR,36.8197,21.7049,63,3.74,19,84.06,1655304383
Kanigoro,ID,-8.13,112.219,93,3.4,84,73.9,1655304384
Kalmunai,LK,7.4167,81.8167,82,9.01,100,80.19,1655304384
‘Ewa Beach,US,21.3156,-158.0072,76,3.44,75,75.15,1655304385
Evinayong,GQ,1.4368,10.5512,90,1.97,49,75.2,1655304386
Cirò Marina,IT,39.3732,17.126,49,4.34,16,87.67,1655304387
Chapais,CA,49.7834,-74.8492,34,9.66,69,69.58,1655304388
Rolla,US,37.9514,-91.7713,66,11.99,28,86.05,1655304388
Mayna,RU,54.1135,47.6231,69,7.99,84,72.19,1655304389
Barra de Tecoanapa,MX,16.5167,-98.75,71,10.98,100,82.35,1655304390
Robertsport,LR,6.7533,-11.3686,77,14.74,100,80.51,1655304391
Kaohsiung City,TW,22.6163,120.3133,80,2.3,75,85.03,1655304131
Somerset,US,40.5668,-74.5496,54,3.44,0,83.39,1655303855
Lālsot,IN,26.5667,76.3333,33,8.03,23,97.79,1655304393
Leh,IN,34.1667,77.5833,52,6.89,59,55.0,1655304393
Linares,CL,-35.85,-71.6,71,3.6,13,53.08,1655304394
Strezhevoy,RU,60.7333,77.5889,89,11.45,100,58.8,1655304395
Ayan,RU,56.45,138.1667,94,3.2,100,42.13,1655304396
Taku,CN,39.0211,117.6469,76,10.13,99,67.96,1655304397
Lamar,US,33.6668,-95.5836,74,16.11,20,83.98,1655304397
Grand-Santi,GF,4.25,-54.3833,69,5.39,24,83.53,1655304398
Kottagūdem,IN,17.55,80.6333,55,2.75,80,90.7,1655304399
Paungde,MM,18.4833,95.5,76,10.63,91,82.18,1655304400
Kupang,ID,-10.1667,123.5833,73,12.03,5,78.04,1655304401
Aswān,EG,24.0934,32.907,16,16.11,0,99.7,1655304402
Turkmenabat,TM,39.0733,63.5786,13,11.5,0,100.38,1655304403
Berezovyy,RU,51.6667,135.7,89,3.09,71,58.55,1655304404
Salihorsk,BY,52.7876,27.5415,71,12.12,54,63.7,1655304405
Rapid Valley,US,44.0625,-103.1463,32,9.22,0,67.71,1655304405
Karratha,AU,-20.7377,116.8463,67,4.7,7,74.39,1655304406
Portland,US,45.5234,-122.6762,83,4.0,0,55.9,1655304169
Abu Dhabi,AE,24.4667,54.3667,63,12.66,5,98.71,1655304408
Sinnamary,GF,5.3833,-52.95,67,10.49,29,83.55,1655304408
Port Blair,IN,11.6667,92.75,78,5.06,99,82.29,1655304409
Winton,US,37.3894,-120.6133,50,3.44,0,69.75,1655304410
Katsuura,JP,35.1333,140.3,93,6.55,100,66.67,1655304411
Tessalit,ML,20.1986,1.0114,16,15.77,45,106.38,1655304411
Kavaratti,IN,10.5669,72.642,74,20.6,100,83.39,1655304412
Huambo,AO,-12.7761,15.7392,13,5.64,39,76.69,1655304407
Henties Bay,NA,-22.116,14.2845,56,9.04,1,63.03,1655304414
Udachny,RU,66.4167,112.4,48,14.41,71,64.45,1655304414
Duvergé,DO,18.3784,-71.5247,52,9.44,100,84.25,1655304415
Basoko,CD,1.2391,23.616,55,0.27,100,85.66,1655304416
Khandyga,RU,62.6667,135.6,94,3.0,100,50.54,1655304417
Venice,US,27.0998,-82.4543,70,10.36,0,91.15,1655304260
Ust'-Uda,RU,54.1742,103.0304,78,2.48,100,66.52,1655304418
Coahuayana Viejo,MX,18.7333,-103.6833,63,0.72,99,86.52,1655304419
Linxia Chengguanzhen,CN,35.6003,103.2064,42,4.79,100,62.19,1655304420
Antalya Province,TR,36.7741,30.7178,65,14.97,40,82.09,1655304126
Vung Tau,VN,10.346,107.0843,74,6.44,100,83.8,1655304233
Skjervøy,NO,70.0311,20.9714,78,7.67,96,51.8,1655304422
Korla,CN,41.7597,86.1469,7,6.8,33,89.82,1655304423
Saint-Augustin,CA,51.226,-58.6502,35,6.98,0,70.56,1655304424
Tagusao,PH,9.1924,117.8141,76,7.47,38,80.53,1655304425
Ixtapa,MX,20.7,-105.2,83,1.99,75,82.22,1655304126
Dalvik,IS,65.9702,-18.5286,65,7.07,56,64.33,1655304426
St. George's,GD,12.0564,-61.7485,79,20.71,75,83.88,1655304427
Chatrapur,IN,19.35,84.9833,82,14.79,100,84.43,1655304428
Belmonte,BR,-15.8631,-38.8828,56,11.63,100,76.96,1655304430
Emirdağ,TR,39.0197,31.15,40,3.96,90,73.51,1655304430
Banda Aceh,ID,5.5577,95.3222,76,12.1,100,80.02,1655304431
Mount Isa,AU,-20.7333,139.5,38,9.22,41,58.77,1655304433
Marang,MY,5.2056,103.2059,82,6.91,94,78.71,1655304434
Walvis Bay,NA,-22.9575,14.5053,27,8.05,0,79.75,1655304435
Dunda,TZ,-8.1167,34.25,32,4.16,5,80.47,1655304436
Senaki,GE,42.2704,42.0675,69,8.05,87,66.29,1655304436
Najrān,SA,17.4924,44.1277,11,18.52,88,97.45,1655304437
Erzin,TR,36.9559,36.2,66,6.53,0,78.15,1655304438
Ajdabiya,LY,30.7554,20.2263,52,17.45,0,81.28,1655304439
Kostomuksha,RU,64.571,30.5767,94,8.57,100,54.18,1655304440
Phonhong,LA,18.5007,102.4166,94,1.88,99,75.36,1655304440
Takoradze,GH,4.8845,-1.7554,93,8.41,100,75.27,1655304442
Laguna,US,38.421,-121.4238,49,1.01,0,75.94,1655304443
Sharkan,RU,57.2989,53.8712,76,8.01,43,70.0,1655304443
Lehigh Acres,US,26.6254,-81.6248,72,5.75,0,89.01,1655304444
Sabang,ID,5.8933,95.3214,75,18.88,100,81.9,1655304445
Morehead,US,37.2711,-87.1764,73,3.44,0,86.79,1655304446
Gimli,CA,50.6336,-96.9907,72,13.8,1,62.62,1655304446
Huangmei,CN,30.1924,116.025,90,2.19,51,74.89,1655304448
Vao,NC,-22.6667,167.4833,83,22.32,100,73.04,1655304449
Luancheng,CN,37.8792,114.6517,41,7.61,80,77.16,1655304449
Namatanai,PG,-3.6667,152.4333,80,7.7,96,79.11,1655304450
Los Algarrobos,PA,8.5,-82.4333,94,4.61,40,75.61,1655304451
Ormara,PK,25.2088,64.6357,84,18.5,0,82.4,1655304452
Narón,ES,43.5167,-8.1528,63,4.79,99,82.04,1655304452
Teknāf,BD,20.8624,92.3058,86,9.01,80,80.92,1655304453
Weyburn,CA,49.6668,-103.8511,67,12.66,59,55.62,1655304454
Lorengau,PG,-2.0226,147.2712,75,7.61,93,81.84,1655304455
Sawākin,SD,19.1059,37.3321,43,11.63,75,95.47,1655304456
Peterhead,GB,57.5058,-1.7981,77,14.74,22,66.6,1655304458
Zeya,RU,53.75,127.2667,86,3.56,96,56.28,1655304458
Plano,US,33.0198,-96.6989,71,16.11,40,85.59,1655304174
Tegul'det,RU,57.3064,88.1667,78,5.1,2,61.32,1655304460
Agadir,MA,30.4202,-9.5982,60,8.68,75,81.05,1655304460
Guantánamo,CU,20.1444,-75.2092,53,7.36,1,83.77,1655304461
Pisco,PE,-13.7,-76.2167,72,2.3,20,63.01,1655304462
Gravelbourg,CA,49.8834,-106.5512,88,7.81,98,52.07,1655304463
Rila,BG,42.1333,23.1333,49,4.97,6,72.48,1655304464
Energetik,RU,51.7445,58.7934,45,6.04,0,72.66,1655304464
Richards Bay,ZA,-28.783,32.0377,54,11.27,32,63.99,1655304465
Cape Coast,GH,5.1053,-1.2466,95,11.05,100,75.29,1655304466
Solnechnyy,RU,50.7214,136.6319,77,4.09,15,60.37,1655304467
Emba,KZ,48.8264,58.1442,26,5.95,2,80.19,1655304468
Sovetskaya Gavan',RU,48.9723,140.2878,90,7.31,28,49.59,1655304469
Moyale,KE,3.5167,39.0584,46,10.22,5,77.0,1655304470
Pompéu,BR,-19.2244,-44.9353,42,2.84,100,76.24,1655304470
Siuna,NI,13.7332,-84.7773,71,5.28,100,80.02,1655304471
Qasigiannguit,GL,68.8193,-51.1922,65,3.22,100,35.85,1655304472
Luwuk,ID,-0.9516,122.7875,85,1.97,67,76.26,1655304473
Setermoen,NO,68.861,18.3486,61,3.0,100,57.16,1655304474
Vuktyl,RU,63.8567,57.3094,48,7.2,38,67.28,1655304476
Saint-Joseph,RE,-21.3667,55.6167,82,12.97,18,71.98,1655304476
Ambon City,ID,-3.6954,128.1814,15,2.3,40,78.24,1655304478
Ubari,LY,26.5921,12.7805,11,10.42,0,96.57,1655304299
Uri,IN,34.0833,74.0333,73,11.52,86,68.07,1655304479
Poum,NC,-20.2333,164.0167,82,14.2,1,76.5,1655304480
Ternate,ID,0.8,127.4,79,4.03,98,80.42,1655304480
Akdepe,TM,42.0551,59.3788,19,19.3,0,96.89,1655304481
Dwārka,IN,22.2394,68.9678,78,15.79,38,85.86,1655304482
Chiman,PK,32.5463,73.8138,15,5.41,36,105.12,1655304483
Claremore,US,36.3126,-95.6161,73,17.27,0,83.14,1655304484
Natal,BR,-5.795,-35.2094,58,13.8,40,88.02,1655304248
Gweta,BW,-20.1833,25.2333,25,6.71,0,73.08,1655304486
Kilakarai,IN,9.2333,78.7833,75,17.9,100,84.13,1655304486
Moerai,PF,-22.4333,-151.3333,67,10.69,100,74.77,1655304487
Pringsewu,ID,-5.3582,104.9744,90,1.28,100,72.72,1655304488
Timizart,DZ,36.8,4.2667,23,8.75,23,95.61,1655304489
Rock Springs,US,41.5875,-109.2029,51,16.11,0,48.24,1655304200
Reinbek,DE,53.5167,10.25,43,6.15,14,75.76,1655304490
Whitehorse,CA,60.7161,-135.0538,81,3.44,75,47.17,1655304491
Zabaykal'sk,RU,49.6333,117.3167,80,1.68,27,57.63,1655304492
Sambava,MG,-14.2667,50.1667,86,8.86,50,73.89,1655304492
Soledade,BR,-28.8183,-52.5103,63,5.84,32,59.9,1655304493
Ngawen,ID,-7.0032,111.3129,91,4.0,71,76.24,1655304494
Moses Lake,US,47.1301,-119.2781,81,6.91,0,50.88,1655304496
Chunskiy,RU,56.0815,99.6342,93,2.77,100,62.91,1655304496
Conakry,GN,9.538,-13.6773,70,9.22,75,86.07,1655304217
Yerbogachën,RU,61.2767,108.0108,79,4.18,22,58.82,1655304498
Monrovia,LR,6.3005,-10.7969,81,12.73,100,79.59,1655304499
Mossamedes,AO,-15.1961,12.1522,60,9.08,18,71.76,1655304500
Sidi Ali,DZ,36.0998,0.4206,33,10.71,64,91.54,1655304502
Fujin,CN,47.26,132.0322,82,8.59,94,57.34,1655304503
Saint-Leu,RE,-21.15,55.2833,74,4.05,11,73.31,1655304504
Canary Islands,ES,28.0,-15.5,48,27.63,0,71.56,1655304505
Shingū,JP,33.7333,135.9833,93,1.7,100,67.78,1655304505
Pauini,BR,-7.7136,-66.9764,60,1.05,79,83.77,1655304506
Buziaş,RO,45.6492,21.6036,30,5.14,7,81.54,1655304507
Spornoye,RU,50.8448,37.2913,72,5.26,88,62.53,1655304508
Kommunar,RU,59.6206,30.39,95,18.75,100,56.73,1655304509
Kaliua,TZ,-5.0606,31.7936,37,3.27,88,80.98,1655304510
Batagay-Alyta,RU,67.8006,130.4114,90,4.92,91,51.21,1655304511
Teahupoo,PF,-17.8333,-149.2667,80,20.67,33,71.53,1655304512
Yaoundé,CM,3.8667,11.5167,90,1.9,79,75.27,1655304451
Tsimmerbude,RU,54.675,20.1347,71,11.14,68,64.96,1655304514
Hereford,GB,52.0568,-2.7148,53,2.86,100,74.8,1655304515
Kirakira,SB,-10.4544,161.9205,85,7.7,92,79.65,1655304515
Mormugao,IN,15.4,73.8,79,9.22,40,83.46,1655304516
Acarí,PE,-15.4311,-74.6158,56,5.57,14,69.21,1655304517
Londoko,RU,49.0333,131.9833,92,1.48,35,55.13,1655304518
Qujing,CN,25.4833,103.7833,88,3.83,100,61.21,1655304519
Ruidoso,US,33.3317,-105.673,23,5.75,0,80.06,1655304519
Itoman,JP,26.1247,127.6694,96,11.5,75,75.97,1655304520
